{"features": [{"properties": {"bikes": 26, "status": "OPEN", "name": "01 Jaures", "stands": 6, "lon": 4.805682, "address": "01 Jaures", "lat": 43.943233}, "geometry": {"type": "Point", "coordinates": [4.805682, 43.943233]}, "type": "Feature"}, {"properties": {"bikes": 10, "status": "OPEN", "name": "02 Place Pie", "stands": 22, "lon": 4.809664, "address": "02 Place Pie", "lat": 43.948364}, "geometry": {"type": "Point", "coordinates": [4.809664, 43.948364]}, "type": "Feature"}, {"properties": {"bikes": 10, "status": "OPEN", "name": "03 Hotel de Ville", "stands": 18, "lon": 4.805381, "address": "03 Hotel de Ville", "lat": 43.949018}, "geometry": {"type": "Point", "coordinates": [4.805381, 43.949018]}, "type": "Feature"}, {"properties": {"bikes": 18, "status": "OPEN", "name": "04 Republique", "stands": 6, "lon": 4.805556, "address": "04 Republique", "lat": 43.946389}, "geometry": {"type": "Point", "coordinates": [4.805556, 43.946389]}, "type": "Feature"}, {"properties": {"bikes": 4, "status": "OPEN", "name": "05 Carmes", "stands": 12, "lon": 4.813056, "address": "05 Carmes", "lat": 43.95}, "geometry": {"type": "Point", "coordinates": [4.813056, 43.95]}, "type": "Feature"}, {"properties": {"bikes": 8, "status": "OPEN", "name": "06 Barthelasse", "stands": 8, "lon": 4.799513, "address": "06 Barthelasse", "lat": 43.95227}, "geometry": {"type": "Point", "coordinates": [4.799513, 43.95227]}, "type": "Feature"}, {"properties": {"bikes": 8, "status": "OPEN", "name": "07 Jules Ferry", "stands": 4, "lon": 4.798708, "address": "07 Jules Ferry", "lat": 43.93804}, "geometry": {"type": "Point", "coordinates": [4.798708, 43.93804]}, "type": "Feature"}, {"properties": {"bikes": 15, "status": "OPEN", "name": "08 Porte de l'Oulle", "stands": 17, "lon": 4.802222, "address": "08 Porte de l'Oulle", "lat": 43.95}, "geometry": {"type": "Point", "coordinates": [4.802222, 43.95]}, "type": "Feature"}, {"properties": {"bikes": 13, "status": "OPEN", "name": "09 Porte Saint-Lazare", "stands": 19, "lon": 4.819661, "address": "09 Porte Saint-Lazare", "lat": 43.950911}, "geometry": {"type": "Point", "coordinates": [4.819661, 43.950911]}, "type": "Feature"}, {"properties": {"bikes": 7, "status": "OPEN", "name": "10 Porte Saint-Roch", "stands": 17, "lon": 4.799444, "address": "10 Porte Saint-Roch", "lat": 43.943611}, "geometry": {"type": "Point", "coordinates": [4.799444, 43.943611]}, "type": "Feature"}, {"properties": {"bikes": 6, "status": "OPEN", "name": "11 Porte Limbert", "stands": 18, "lon": 4.814722, "address": "11 Porte Limbert", "lat": 43.943889}, "geometry": {"type": "Point", "coordinates": [4.814722, 43.943889]}, "type": "Feature"}, {"properties": {"bikes": 5, "status": "OPEN", "name": "12 Porte Thiers", "stands": 19, "lon": 4.817007, "address": "12 Porte Thiers", "lat": 43.946397}, "geometry": {"type": "Point", "coordinates": [4.817007, 43.946397]}, "type": "Feature"}, {"properties": {"bikes": 6, "status": "OPEN", "name": "13 Saint Ruf", "stands": 10, "lon": 4.810278, "address": "13 Saint Ruf", "lat": 43.937778}, "geometry": {"type": "Point", "coordinates": [4.810278, 43.937778]}, "type": "Feature"}, {"properties": {"bikes": 6, "status": "OPEN", "name": "14 Maison pour tous", "stands": 10, "lon": 4.805833, "address": "14 Maison pour tous", "lat": 43.939444}, "geometry": {"type": "Point", "coordinates": [4.805833, 43.939444]}, "type": "Feature"}, {"properties": {"bikes": 3, "status": "OPEN", "name": "15 Mairie Nord", "stands": 13, "lon": 4.828687, "address": "15 Mairie Nord", "lat": 43.947767}, "geometry": {"type": "Point", "coordinates": [4.828687, 43.947767]}, "type": "Feature"}, {"properties": {"bikes": 8, "status": "OPEN", "name": "16 Rotondes", "stands": 8, "lon": 4.821389, "address": "16 Rotondes", "lat": 43.939167}, "geometry": {"type": "Point", "coordinates": [4.821389, 43.939167]}, "type": "Feature"}, {"properties": {"bikes": 8, "status": "OPEN", "name": "17 Dunant", "stands": 8, "lon": 4.822222, "address": "17 Dunant", "lat": 43.941944}, "geometry": {"type": "Point", "coordinates": [4.822222, 43.941944]}, "type": "Feature"}, {"properties": {"bikes": 9, "status": "OPEN", "name": "18 Saint Michel", "stands": 15, "lon": 4.808575, "address": "18 Saint Michel", "lat": 43.9429}, "geometry": {"type": "Point", "coordinates": [4.808575, 43.9429]}, "type": "Feature"}, {"properties": {"bikes": 6, "status": "OPEN", "name": "24 Villeneuve", "stands": 10, "lon": 4.800287, "address": "24 Villeneuve", "lat": 43.963305}, "geometry": {"type": "Point", "coordinates": [4.800287, 43.963305]}, "type": "Feature"}, {"properties": {"bikes": 0, "status": "OPEN", "name": "Agence TCRA", "stands": 8, "lon": 4.805833, "address": "Agence TCRA", "lat": 43.943689}, "geometry": {"type": "Point", "coordinates": [4.805833, 43.943689]}, "type": "Feature"}], "type": "FeatureCollection"}