{"type": "FeatureCollection", "features": [{"type": "Feature", "geometry": {"type": "Point", "coordinates": [55.280389, 25.193891]}, "properties": {"bikes": 8, "stands": 8, "name": "The Address Downtown", "status": "OPEN", "lon": 55.280389, "lat": 25.193891, "address": "The Address Downtown"}}, {"type": "Feature", "geometry": {"type": "Point", "coordinates": [55.2774954, 25.1955077]}, "properties": {"bikes": 8, "stands": 12, "name": "BURJ PLAZA", "status": "OPEN", "lon": 55.2774954, "lat": 25.1955077, "address": "BURJ PLAZA"}}, {"type": "Feature", "geometry": {"type": "Point", "coordinates": [55.2735778, 25.1969265]}, "properties": {"bikes": 10, "stands": 10, "name": "BURJ PARK", "status": "OPEN", "lon": 55.2735778, "lat": 25.1969265, "address": "BURJ PARK"}}, {"type": "Feature", "geometry": {"type": "Point", "coordinates": [55.272565, 25.199151]}, "properties": {"bikes": 9, "stands": 7, "name": "EMAAR SQUARE", "status": "OPEN", "lon": 55.272565, "lat": 25.199151, "address": "EMAAR SQUARE"}}, {"type": "Feature", "geometry": {"type": "Point", "coordinates": [55.277383, 25.18787]}, "properties": {"bikes": 13, "stands": 3, "name": "Emaar South Ridge", "status": "OPEN", "lon": 55.277383, "lat": 25.18787, "address": "Emaar South Ridge"}}, {"type": "Feature", "geometry": {"type": "Point", "coordinates": [55.137784, 25.075468]}, "properties": {"bikes": 2, "stands": 12, "name": "MARINA WALK", "status": "OPEN", "lon": 55.137784, "lat": 25.075468, "address": "MARINA WALK"}}, {"type": "Feature", "geometry": {"type": "Point", "coordinates": [55.140992, 25.075533]}, "properties": {"bikes": 10, "stands": 6, "name": "MARINA MALL", "status": "OPEN", "lon": 55.140992, "lat": 25.075533, "address": "MARINA MALL"}}, {"type": "Feature", "geometry": {"type": "Point", "coordinates": [55.134539, 25.0716593]}, "properties": {"bikes": 3, "stands": 13, "name": "MARINA YACHT CLUB", "status": "OPEN", "lon": 55.134539, "lat": 25.0716593, "address": "MARINA YACHT CLUB"}}, {"type": "Feature", "geometry": {"type": "Point", "coordinates": [55.147989, 25.086362]}, "properties": {"bikes": 7, "stands": 9, "name": "MARINA SPINNEYS", "status": "OPEN", "lon": 55.147989, "lat": 25.086362, "address": "MARINA SPINNEYS"}}, {"type": "Feature", "geometry": {"type": "Point", "coordinates": [55.144638, 25.085839]}, "properties": {"bikes": 5, "stands": 11, "name": "MARINA G.H ", "status": "OPEN", "lon": 55.144638, "lat": 25.085839, "address": "MARINA G.H "}}, {"type": "Feature", "geometry": {"type": "Point", "coordinates": [55.144538, 25.110146]}, "properties": {"bikes": 9, "stands": 7, "name": "Al Ittihad Park Palm", "status": "OPEN", "lon": 55.144538, "lat": 25.110146, "address": "Al Ittihad Park Palm"}}, {"type": "Feature", "geometry": {"type": "Point", "coordinates": [55.11604, 25.131604]}, "properties": {"bikes": 14, "stands": 0, "name": "ATLANTIS PALM", "status": "OPEN", "lon": 55.11604, "lat": 25.131604, "address": "ATLANTIS PALM"}}, {"type": "Feature", "geometry": {"type": "Point", "coordinates": [55.132104, 25.140788]}, "properties": {"bikes": 8, "stands": 0, "name": "SOFITEL PALM", "status": "OPEN", "lon": 55.132104, "lat": 25.140788, "address": "SOFITEL PALM"}}, {"type": "Feature", "geometry": {"type": "Point", "coordinates": [55.150141, 25.107074]}, "properties": {"bikes": 1, "stands": 15, "name": " Al Dabas Palm", "status": "OPEN", "lon": 55.150141, "lat": 25.107074, "address": " Al Dabas Palm"}}, {"type": "Feature", "geometry": {"type": "Point", "coordinates": [55.123317, 25.097565]}, "properties": {"bikes": 7, "stands": 3, "name": "ZABEEL SARAY PALM", "status": "OPEN", "lon": 55.123317, "lat": 25.097565, "address": "ZABEEL SARAY PALM"}}, {"type": "Feature", "geometry": {"type": "Point", "coordinates": [55.154052, 25.129618]}, "properties": {"bikes": 6, "stands": 2, "name": "ANANTARA PALM", "status": "OPEN", "lon": 55.154052, "lat": 25.129618, "address": "ANANTARA PALM"}}, {"type": "Feature", "geometry": {"type": "Point", "coordinates": [55.141234, 25.110394]}, "properties": {"bikes": 4, "stands": 6, "name": "Fairmont Palm ", "status": "OPEN", "lon": 55.141234, "lat": 25.110394, "address": "Fairmont Palm "}}, {"type": "Feature", "geometry": {"type": "Point", "coordinates": [55.145545, 25.088124]}, "properties": {"bikes": 7, "stands": 7, "name": "MARINA MARRIOT", "status": "OPEN", "lon": 55.145545, "lat": 25.088124, "address": "MARINA MARRIOT"}}, {"type": "Feature", "geometry": {"type": "Point", "coordinates": [55.26399314403533, 25.233055236405264]}, "properties": {"bikes": 8, "stands": 12, "name": "Palm Strip Centre Station", "status": "OPEN", "lon": 55.26399314403533, "lat": 25.233055236405264, "address": "Palm Strip Centre Station"}}, {"type": "Feature", "geometry": {"type": "Point", "coordinates": [55.240871, 25.202596]}, "properties": {"bikes": 13, "stands": 0, "name": "Jumeirah four season ", "status": "OPEN", "lon": 55.240871, "lat": 25.202596, "address": "Jumeirah four season "}}, {"type": "Feature", "geometry": {"type": "Point", "coordinates": [55.20166933536529, 25.152942360555738]}, "properties": {"bikes": 13, "stands": 3, "name": "Umm Suqeim Station", "status": "OPEN", "lon": 55.20166933536529, "lat": 25.152942360555738, "address": "Umm Suqeim Station"}}, {"type": "Feature", "geometry": {"type": "Point", "coordinates": [55.192862, 25.142759]}, "properties": {"bikes": 7, "stands": 7, "name": "Jumeirah Beach Hotel ", "status": "OPEN", "lon": 55.192862, "lat": 25.142759, "address": "Jumeirah Beach Hotel "}}, {"type": "Feature", "geometry": {"type": "Point", "coordinates": [55.147617, 25.090744]}, "properties": {"bikes": 6, "stands": 10, "name": "le meridien mina seyahi", "status": "OPEN", "lon": 55.147617, "lat": 25.090744, "address": "le meridien mina seyahi"}}, {"type": "Feature", "geometry": {"type": "Point", "coordinates": [55.390536, 25.117615]}, "properties": {"bikes": 0, "stands": 16, "name": "SIT Tower DSO", "status": "OPEN", "lon": 55.390536, "lat": 25.117615, "address": "SIT Tower DSO"}}, {"type": "Feature", "geometry": {"type": "Point", "coordinates": [55.396536, 25.127663]}, "properties": {"bikes": 0, "stands": 16, "name": "Cedre Villas DSO", "status": "OPEN", "lon": 55.396536, "lat": 25.127663, "address": "Cedre Villas DSO"}}, {"type": "Feature", "geometry": {"type": "Point", "coordinates": [55.381537, 25.113897]}, "properties": {"bikes": 0, "stands": 16, "name": "Semmer Villas DSO", "status": "OPEN", "lon": 55.381537, "lat": 25.113897, "address": "Semmer Villas DSO"}}]}