{"features": [{"properties": {"bikes": 6, "status": "OPEN", "name": "1 Rue Jules Ferry - Gare Saint-Roch", "stands": 10, "lon": 3.881346, "address": "1 Rue Jules Ferry - Gare Saint-Roch", "lat": 43.605366}, "geometry": {"type": "Point", "coordinates": [3.881346, 43.605366]}, "type": "Feature"}, {"properties": {"bikes": 9, "status": "OPEN", "name": "2 Com\u00e9die", "stands": 15, "lon": 3.878778, "address": "2 Com\u00e9die", "lat": 43.608148}, "geometry": {"type": "Point", "coordinates": [3.878778, 43.608148]}, "type": "Feature"}, {"properties": {"bikes": 5, "status": "OPEN", "name": "3 Esplanade", "stands": 27, "lon": 3.881293, "address": "3 Esplanade", "lat": 43.609478}, "geometry": {"type": "Point", "coordinates": [3.881293, 43.609478]}, "type": "Feature"}, {"properties": {"bikes": 6, "status": "OPEN", "name": "4 H\u00f4tel de Ville", "stands": 10, "lon": 3.894866, "address": "4 H\u00f4tel de Ville", "lat": 43.599088}, "geometry": {"type": "Point", "coordinates": [3.894866, 43.599088]}, "type": "Feature"}, {"properties": {"bikes": 13, "status": "OPEN", "name": "5 Corum", "stands": 3, "lon": 3.8816, "address": "5 Corum", "lat": 43.613989}, "geometry": {"type": "Point", "coordinates": [3.8816, 43.613989]}, "type": "Feature"}, {"properties": {"bikes": 5, "status": "OPEN", "name": "6 Albert 1er", "stands": 19, "lon": 3.873375, "address": "6 Albert 1er", "lat": 43.616768}, "geometry": {"type": "Point", "coordinates": [3.873375, 43.616768]}, "type": "Feature"}, {"properties": {"bikes": 8, "status": "OPEN", "name": "7 Foch", "stands": 0, "lon": 3.873345, "address": "7 Foch", "lat": 43.610989}, "geometry": {"type": "Point", "coordinates": [3.873345, 43.610989]}, "type": "Feature"}, {"properties": {"bikes": 1, "status": "OPEN", "name": "8 Halles Castellane", "stands": 15, "lon": 3.877208, "address": "8 Halles Castellane", "lat": 43.609935}, "geometry": {"type": "Point", "coordinates": [3.877208, 43.609935]}, "type": "Feature"}, {"properties": {"bikes": 2, "status": "OPEN", "name": "10 Rondelet", "stands": 14, "lon": 3.875796, "address": "10 Rondelet", "lat": 43.603038}, "geometry": {"type": "Point", "coordinates": [3.875796, 43.603038]}, "type": "Feature"}, {"properties": {"bikes": 4, "status": "OPEN", "name": "11 Plan Cabanes", "stands": 8, "lon": 3.868389, "address": "11 Plan Cabanes", "lat": 43.608491}, "geometry": {"type": "Point", "coordinates": [3.868389, 43.608491]}, "type": "Feature"}, {"properties": {"bikes": 3, "status": "OPEN", "name": "12 Boutonnet", "stands": 9, "lon": 3.868375, "address": "12 Boutonnet", "lat": 43.622629}, "geometry": {"type": "Point", "coordinates": [3.868375, 43.622629]}, "type": "Feature"}, {"properties": {"bikes": 8, "status": "OPEN", "name": "13 Emile Combes", "stands": 0, "lon": 3.87998, "address": "13 Emile Combes", "lat": 43.616742}, "geometry": {"type": "Point", "coordinates": [3.87998, 43.616742]}, "type": "Feature"}, {"properties": {"bikes": 1, "status": "OPEN", "name": "14 Beaux-Arts", "stands": 7, "lon": 3.884981, "address": "14 Beaux-Arts", "lat": 43.616698}, "geometry": {"type": "Point", "coordinates": [3.884981, 43.616698]}, "type": "Feature"}, {"properties": {"bikes": 8, "status": "OPEN", "name": "15 Les Aubes", "stands": 0, "lon": 3.893844, "address": "15 Les Aubes", "lat": 43.618692}, "geometry": {"type": "Point", "coordinates": [3.893844, 43.618692]}, "type": "Feature"}, {"properties": {"bikes": 1, "status": "OPEN", "name": "16 Antigone centre", "stands": 15, "lon": 3.890634, "address": "16 Antigone centre", "lat": 43.607942}, "geometry": {"type": "Point", "coordinates": [3.890634, 43.607942]}, "type": "Feature"}, {"properties": {"bikes": 6, "status": "OPEN", "name": "17 M\u00e9diath\u00e8que Emile Zola", "stands": 10, "lon": 3.89314, "address": "17 M\u00e9diath\u00e8que Emile Zola", "lat": 43.608218}, "geometry": {"type": "Point", "coordinates": [3.89314, 43.608218]}, "type": "Feature"}, {"properties": {"bikes": 3, "status": "OPEN", "name": "18 Nombre d'Or", "stands": 13, "lon": 3.886644, "address": "18 Nombre d'Or", "lat": 43.607859}, "geometry": {"type": "Point", "coordinates": [3.886644, 43.607859]}, "type": "Feature"}, {"properties": {"bikes": 1, "status": "OPEN", "name": "19 Louis Blanc", "stands": 15, "lon": 3.877648, "address": "19 Louis Blanc", "lat": 43.614642}, "geometry": {"type": "Point", "coordinates": [3.877648, 43.614642]}, "type": "Feature"}, {"properties": {"bikes": 3, "status": "OPEN", "name": "20 Gambetta", "stands": 5, "lon": 3.870693, "address": "20 Gambetta", "lat": 43.607106}, "geometry": {"type": "Point", "coordinates": [3.870693, 43.607106]}, "type": "Feature"}, {"properties": {"bikes": 4, "status": "OPEN", "name": "21 Port Marianne", "stands": 12, "lon": 3.89851, "address": "21 Port Marianne", "lat": 43.60032}, "geometry": {"type": "Point", "coordinates": [3.89851, 43.60032]}, "type": "Feature"}, {"properties": {"bikes": 3, "status": "OPEN", "name": "22 Clemenceau", "stands": 9, "lon": 3.872394, "address": "22 Clemenceau", "lat": 43.603539}, "geometry": {"type": "Point", "coordinates": [3.872394, 43.603539]}, "type": "Feature"}, {"properties": {"bikes": 2, "status": "OPEN", "name": "23 Les Arceaux", "stands": 14, "lon": 3.867157, "address": "23 Les Arceaux", "lat": 43.611991}, "geometry": {"type": "Point", "coordinates": [3.867157, 43.611991]}, "type": "Feature"}, {"properties": {"bikes": 5, "status": "OPEN", "name": "24 Cit\u00e9 Mion", "stands": 3, "lon": 3.884373, "address": "24 Cit\u00e9 Mion", "lat": 43.601143}, "geometry": {"type": "Point", "coordinates": [3.884373, 43.601143]}, "type": "Feature"}, {"properties": {"bikes": 5, "status": "OPEN", "name": "25 Nouveau Saint-Roch", "stands": 3, "lon": 3.875757, "address": "25 Nouveau Saint-Roch", "lat": 43.599817}, "geometry": {"type": "Point", "coordinates": [3.875757, 43.599817]}, "type": "Feature"}, {"properties": {"bikes": 1, "status": "OPEN", "name": "26 Renouvier", "stands": 7, "lon": 3.867884, "address": "26 Renouvier", "lat": 43.603553}, "geometry": {"type": "Point", "coordinates": [3.867884, 43.603553]}, "type": "Feature"}, {"properties": {"bikes": 4, "status": "OPEN", "name": "27 Odysseum", "stands": 4, "lon": 3.918979, "address": "27 Odysseum", "lat": 43.603727}, "geometry": {"type": "Point", "coordinates": [3.918979, 43.603727]}, "type": "Feature"}, {"properties": {"bikes": 3, "status": "OPEN", "name": "28 Saint-Denis", "stands": 5, "lon": 3.875065, "address": "28 Saint-Denis", "lat": 43.605021}, "geometry": {"type": "Point", "coordinates": [3.875065, 43.605021]}, "type": "Feature"}, {"properties": {"bikes": 7, "status": "OPEN", "name": "29 Richter", "stands": 9, "lon": 3.899263, "address": "29 Richter", "lat": 43.603424}, "geometry": {"type": "Point", "coordinates": [3.899263, 43.603424]}, "type": "Feature"}, {"properties": {"bikes": 0, "status": "OPEN", "name": "30 Charles Flahault", "stands": 8, "lon": 3.865971, "address": "30 Charles Flahault", "lat": 43.618762}, "geometry": {"type": "Point", "coordinates": [3.865971, 43.618762]}, "type": "Feature"}, {"properties": {"bikes": 0, "status": "OPEN", "name": "31 Voltaire", "stands": 8, "lon": 3.888659, "address": "31 Voltaire", "lat": 43.603767}, "geometry": {"type": "Point", "coordinates": [3.888659, 43.603767]}, "type": "Feature"}, {"properties": {"bikes": 3, "status": "OPEN", "name": "32 Pr\u00e9s d'Ar\u00e8nes", "stands": 5, "lon": 3.884611, "address": "32 Pr\u00e9s d'Ar\u00e8nes", "lat": 43.59048}, "geometry": {"type": "Point", "coordinates": [3.884611, 43.59048]}, "type": "Feature"}, {"properties": {"bikes": 8, "status": "OPEN", "name": "33 Garcia Lorca", "stands": 0, "lon": 3.890616, "address": "33 Garcia Lorca", "lat": 43.590757}, "geometry": {"type": "Point", "coordinates": [3.890616, 43.590757]}, "type": "Feature"}, {"properties": {"bikes": 1, "status": "OPEN", "name": "34 Vert Bois", "stands": 7, "lon": 3.86823, "address": "34 Vert Bois", "lat": 43.63458}, "geometry": {"type": "Point", "coordinates": [3.86823, 43.63458]}, "type": "Feature"}, {"properties": {"bikes": 1, "status": "OPEN", "name": "35 Malbosc", "stands": 7, "lon": 3.832861, "address": "35 Malbosc", "lat": 43.633679}, "geometry": {"type": "Point", "coordinates": [3.832861, 43.633679]}, "type": "Feature"}, {"properties": {"bikes": 6, "status": "OPEN", "name": "36 Occitanie", "stands": 26, "lon": 3.849128, "address": "36 Occitanie", "lat": 43.634242}, "geometry": {"type": "Point", "coordinates": [3.849128, 43.634242]}, "type": "Feature"}, {"properties": {"bikes": 0, "status": "OPEN", "name": "37 Fac des Sciences", "stands": 24, "lon": 3.861159, "address": "37 Fac des Sciences", "lat": 43.631432}, "geometry": {"type": "Point", "coordinates": [3.861159, 43.631432]}, "type": "Feature"}, {"properties": {"bikes": 0, "status": "OPEN", "name": "38 Fac de Lettres", "stands": 28, "lon": 3.87023, "address": "38 Fac de Lettres", "lat": 43.630665}, "geometry": {"type": "Point", "coordinates": [3.87023, 43.630665]}, "type": "Feature"}, {"properties": {"bikes": 2, "status": "OPEN", "name": "39 Aiguelongue", "stands": 6, "lon": 3.882492, "address": "39 Aiguelongue", "lat": 43.626163}, "geometry": {"type": "Point", "coordinates": [3.882492, 43.626163]}, "type": "Feature"}, {"properties": {"bikes": 4, "status": "OPEN", "name": "40 Jeu de Mail des Abb\u00e9s", "stands": 4, "lon": 3.883831, "address": "40 Jeu de Mail des Abb\u00e9s", "lat": 43.619701}, "geometry": {"type": "Point", "coordinates": [3.883831, 43.619701]}, "type": "Feature"}, {"properties": {"bikes": 3, "status": "OPEN", "name": "41 Eurom\u00e9decine", "stands": 5, "lon": 3.828199, "address": "41 Eurom\u00e9decine", "lat": 43.639119}, "geometry": {"type": "Point", "coordinates": [3.828199, 43.639119]}, "type": "Feature"}, {"properties": {"bikes": 4, "status": "OPEN", "name": "42 Marie Caizergues", "stands": 4, "lon": 3.873812, "address": "42 Marie Caizergues", "lat": 43.619871}, "geometry": {"type": "Point", "coordinates": [3.873812, 43.619871]}, "type": "Feature"}, {"properties": {"bikes": 6, "status": "OPEN", "name": "43 Sabines", "stands": 2, "lon": 3.860031, "address": "43 Sabines", "lat": 43.584211}, "geometry": {"type": "Point", "coordinates": [3.860031, 43.584211]}, "type": "Feature"}, {"properties": {"bikes": 6, "status": "OPEN", "name": "44 Celleneuve", "stands": 2, "lon": 3.832624, "address": "44 Celleneuve", "lat": 43.61467}, "geometry": {"type": "Point", "coordinates": [3.832624, 43.61467]}, "type": "Feature"}, {"properties": {"bikes": 3, "status": "OPEN", "name": "45 Jardin de la Lironde", "stands": 5, "lon": 3.911576, "address": "45 Jardin de la Lironde", "lat": 43.60585}, "geometry": {"type": "Point", "coordinates": [3.911576, 43.60585]}, "type": "Feature"}, {"properties": {"bikes": 6, "status": "OPEN", "name": "46 P\u00e8re Soulas", "stands": 2, "lon": 3.855603, "address": "46 P\u00e8re Soulas", "lat": 43.621983}, "geometry": {"type": "Point", "coordinates": [3.855603, 43.621983]}, "type": "Feature"}, {"properties": {"bikes": 3, "status": "OPEN", "name": "47 Place Viala", "stands": 5, "lon": 3.855075, "address": "47 Place Viala", "lat": 43.616812}, "geometry": {"type": "Point", "coordinates": [3.855075, 43.616812]}, "type": "Feature"}, {"properties": {"bikes": 0, "status": "OPEN", "name": "48 H\u00f4tel du D\u00e9partement", "stands": 8, "lon": 3.83477, "address": "48 H\u00f4tel du D\u00e9partement", "lat": 43.621682}, "geometry": {"type": "Point", "coordinates": [3.83477, 43.621682]}, "type": "Feature"}, {"properties": {"bikes": 0, "status": "OPEN", "name": "49 Tonnelles", "stands": 8, "lon": 3.839466, "address": "49 Tonnelles", "lat": 43.615155}, "geometry": {"type": "Point", "coordinates": [3.839466, 43.615155]}, "type": "Feature"}, {"properties": {"bikes": 5, "status": "OPEN", "name": "50 Parvis Jules Ferry - Gare Saint-Roch", "stands": 3, "lon": 3.879362, "address": "50 Parvis Jules Ferry - Gare Saint-Roch", "lat": 43.603889}, "geometry": {"type": "Point", "coordinates": [3.879362, 43.603889]}, "type": "Feature"}, {"properties": {"bikes": 2, "status": "OPEN", "name": "51 Pont de Lattes - Gare Saint-Roch", "stands": 10, "lon": 3.882393, "address": "51 Pont de Lattes - Gare Saint-Roch", "lat": 43.606036}, "geometry": {"type": "Point", "coordinates": [3.882393, 43.606036]}, "type": "Feature"}, {"properties": {"bikes": 3, "status": "OPEN", "name": "53 Deux Ponts - Gare Saint-Roch", "stands": 5, "lon": 3.880916, "address": "53 Deux Ponts - Gare Saint-Roch", "lat": 43.604319}, "geometry": {"type": "Point", "coordinates": [3.880916, 43.604319]}, "type": "Feature"}, {"properties": {"bikes": 3, "status": "OPEN", "name": "54 Providence - Ovalie", "stands": 5, "lon": 3.853421, "address": "54 Providence - Ovalie", "lat": 43.588239}, "geometry": {"type": "Point", "coordinates": [3.853421, 43.588239]}, "type": "Feature"}], "type": "FeatureCollection"}