{"features": [{"properties": {"bikes": 8, "status": "OPEN", "name": "101 Gare de Chateaucreux", "stands": 24, "lon": 4.398855, "address": "101 Gare de Chateaucreux", "lat": 45.442972}, "geometry": {"type": "Point", "coordinates": [4.398855, 45.442972]}, "type": "Feature"}, {"properties": {"bikes": 10, "status": "OPEN", "name": "102 Bergson-Chaleassiere", "stands": 6, "lon": 4.383062, "address": "102 Bergson-Chaleassiere", "lat": 45.453601}, "geometry": {"type": "Point", "coordinates": [4.383062, 45.453601]}, "type": "Feature"}, {"properties": {"bikes": 12, "status": "OPEN", "name": "103 Gare de Carnot", "stands": 12, "lon": 4.385487, "address": "103 Gare de Carnot", "lat": 45.447093}, "geometry": {"type": "Point", "coordinates": [4.385487, 45.447093]}, "type": "Feature"}, {"properties": {"bikes": 5, "status": "OPEN", "name": "104 Jacquard", "stands": 7, "lon": 4.382492, "address": "104 Jacquard", "lat": 45.441888}, "geometry": {"type": "Point", "coordinates": [4.382492, 45.441888]}, "type": "Feature"}, {"properties": {"bikes": 1, "status": "OPEN", "name": "105 Jean Jaures", "stands": 31, "lon": 4.387295, "address": "105 Jean Jaures", "lat": 45.440725}, "geometry": {"type": "Point", "coordinates": [4.387295, 45.440725]}, "type": "Feature"}, {"properties": {"bikes": 6, "status": "OPEN", "name": "106 Dorian", "stands": 26, "lon": 4.388435, "address": "106 Dorian", "lat": 45.43836}, "geometry": {"type": "Point", "coordinates": [4.388435, 45.43836]}, "type": "Feature"}, {"properties": {"bikes": 7, "status": "OPEN", "name": "107 Gare du Clapier", "stands": 9, "lon": 4.378789, "address": "107 Gare du Clapier", "lat": 45.436903}, "geometry": {"type": "Point", "coordinates": [4.378789, 45.436903]}, "type": "Feature"}, {"properties": {"bikes": 11, "status": "OPEN", "name": "108 Peuple", "stands": 21, "lon": 4.387539, "address": "108 Peuple", "lat": 45.436265}, "geometry": {"type": "Point", "coordinates": [4.387539, 45.436265]}, "type": "Feature"}, {"properties": {"bikes": 8, "status": "OPEN", "name": "109 Albert Thomas", "stands": 8, "lon": 4.388035, "address": "109 Albert Thomas", "lat": 45.4328}, "geometry": {"type": "Point", "coordinates": [4.388035, 45.4328]}, "type": "Feature"}, {"properties": {"bikes": 7, "status": "OPEN", "name": "110 Anatole France", "stands": 9, "lon": 4.389752, "address": "110 Anatole France", "lat": 45.43065}, "geometry": {"type": "Point", "coordinates": [4.389752, 45.43065]}, "type": "Feature"}, {"properties": {"bikes": 5, "status": "OPEN", "name": "111 Tardy-Buisson", "stands": 7, "lon": 4.386718, "address": "111 Tardy-Buisson", "lat": 45.427396}, "geometry": {"type": "Point", "coordinates": [4.386718, 45.427396]}, "type": "Feature"}, {"properties": {"bikes": 10, "status": "OPEN", "name": "112 Trefilerie", "stands": 14, "lon": 4.390669, "address": "112 Trefilerie", "lat": 45.427296}, "geometry": {"type": "Point", "coordinates": [4.390669, 45.427296]}, "type": "Feature"}, {"properties": {"bikes": 9, "status": "OPEN", "name": "113 Centre 2", "stands": 15, "lon": 4.392292, "address": "113 Centre 2", "lat": 45.42342}, "geometry": {"type": "Point", "coordinates": [4.392292, 45.42342]}, "type": "Feature"}, {"properties": {"bikes": 13, "status": "OPEN", "name": "114 Gare de Bellevue", "stands": 11, "lon": 4.393322, "address": "114 Gare de Bellevue", "lat": 45.415579}, "geometry": {"type": "Point", "coordinates": [4.393322, 45.415579]}, "type": "Feature"}, {"properties": {"bikes": 5, "status": "OPEN", "name": "115 Fauriel-Centre des Congres", "stands": 11, "lon": 4.404048, "address": "115 Fauriel-Centre des Congres", "lat": 45.426972}, "geometry": {"type": "Point", "coordinates": [4.404048, 45.426972]}, "type": "Feature"}, {"properties": {"bikes": 13, "status": "OPEN", "name": "116 Fauriel-Villeboeuf", "stands": 3, "lon": 4.395127, "address": "116 Fauriel-Villeboeuf", "lat": 45.431808}, "geometry": {"type": "Point", "coordinates": [4.395127, 45.431808]}, "type": "Feature"}, {"properties": {"bikes": 8, "status": "OPEN", "name": "117 Chavanelle", "stands": 16, "lon": 4.391962, "address": "117 Chavanelle", "lat": 45.435109}, "geometry": {"type": "Point", "coordinates": [4.391962, 45.435109]}, "type": "Feature"}, {"properties": {"bikes": 10, "status": "OPEN", "name": "118 Jean Moulin", "stands": 6, "lon": 4.392469, "address": "118 Jean Moulin", "lat": 45.437404}, "geometry": {"type": "Point", "coordinates": [4.392469, 45.437404]}, "type": "Feature"}, {"properties": {"bikes": 11, "status": "OPEN", "name": "119 Fourneyron", "stands": 13, "lon": 4.395669, "address": "119 Fourneyron", "lat": 45.4395}, "geometry": {"type": "Point", "coordinates": [4.395669, 45.4395]}, "type": "Feature"}, {"properties": {"bikes": 6, "status": "OPEN", "name": "120 Saint-Francois", "stands": 10, "lon": 4.403407, "address": "120 Saint-Francois", "lat": 45.439538}, "geometry": {"type": "Point", "coordinates": [4.403407, 45.439538]}, "type": "Feature"}, {"properties": {"bikes": 6, "status": "OPEN", "name": "121 Bergson-Guichard", "stands": 10, "lon": 4.38186, "address": "121 Bergson-Guichard", "lat": 45.45901}, "geometry": {"type": "Point", "coordinates": [4.38186, 45.45901]}, "type": "Feature"}, {"properties": {"bikes": 8, "status": "OPEN", "name": "122 La Terrasse", "stands": 8, "lon": 4.37874, "address": "122 La Terrasse", "lat": 45.46502}, "geometry": {"type": "Point", "coordinates": [4.37874, 45.46502]}, "type": "Feature"}, {"properties": {"bikes": 9, "status": "OPEN", "name": "123 Fauriel Marx", "stands": 7, "lon": 4.409376, "address": "123 Fauriel Marx", "lat": 45.422732}, "geometry": {"type": "Point", "coordinates": [4.409376, 45.422732]}, "type": "Feature"}, {"properties": {"bikes": 7, "status": "OPEN", "name": "124 Janin - Plaine Achille", "stands": 9, "lon": 4.39492, "address": "124 Janin - Plaine Achille", "lat": 45.448458}, "geometry": {"type": "Point", "coordinates": [4.39492, 45.448458]}, "type": "Feature"}, {"properties": {"bikes": 10, "status": "OPEN", "name": "125 Le Soleil", "stands": 6, "lon": 4.403566, "address": "125 Le Soleil", "lat": 45.450533}, "geometry": {"type": "Point", "coordinates": [4.403566, 45.450533]}, "type": "Feature"}, {"properties": {"bikes": 11, "status": "OPEN", "name": "126 Hopital nord", "stands": 21, "lon": 4.362541, "address": "126 Hopital nord", "lat": 45.479487}, "geometry": {"type": "Point", "coordinates": [4.362541, 45.479487]}, "type": "Feature"}, {"properties": {"bikes": 10, "status": "OPEN", "name": "127 Parc Jean Marc", "stands": 22, "lon": 4.366528, "address": "127 Parc Jean Marc", "lat": 45.473278}, "geometry": {"type": "Point", "coordinates": [4.366528, 45.473278]}, "type": "Feature"}, {"properties": {"bikes": 10, "status": "OPEN", "name": "128 Technopole", "stands": 6, "lon": 4.39241, "address": "128 Technopole", "lat": 45.457}, "geometry": {"type": "Point", "coordinates": [4.39241, 45.457]}, "type": "Feature"}, {"properties": {"bikes": 6, "status": "OPEN", "name": "129 Roannelle-Loubet", "stands": 10, "lon": 4.382993, "address": "129 Roannelle-Loubet", "lat": 45.435717}, "geometry": {"type": "Point", "coordinates": [4.382993, 45.435717]}, "type": "Feature"}], "type": "FeatureCollection"}