{"features": [{"properties": {"bikes": 9, "status": "OPEN", "name": "01 Mairie Valence", "stands": 7, "lon": 4.892433, "address": "01 Mairie Valence", "lat": 44.932933}, "geometry": {"type": "Point", "coordinates": [4.892433, 44.932933]}, "type": "Feature"}, {"properties": {"bikes": 7, "status": "OPEN", "name": "02 Dunkerque", "stands": 9, "lon": 4.898914, "address": "02 Dunkerque", "lat": 44.936522}, "geometry": {"type": "Point", "coordinates": [4.898914, 44.936522]}, "type": "Feature"}, {"properties": {"bikes": 8, "status": "OPEN", "name": "03 Conseil G\u00e9n\u00e9ral", "stands": 8, "lon": 4.894897, "address": "03 Conseil G\u00e9n\u00e9ral", "lat": 44.934958}, "geometry": {"type": "Point", "coordinates": [4.894897, 44.934958]}, "type": "Feature"}, {"properties": {"bikes": 10, "status": "OPEN", "name": "04 P\u00f4le Bus", "stands": 14, "lon": 4.894528, "address": "04 P\u00f4le Bus", "lat": 44.930672}, "geometry": {"type": "Point", "coordinates": [4.894528, 44.930672]}, "type": "Feature"}, {"properties": {"bikes": 6, "status": "OPEN", "name": "05 Marguerite", "stands": 6, "lon": 4.888397, "address": "05 Marguerite", "lat": 44.925003}, "geometry": {"type": "Point", "coordinates": [4.888397, 44.925003]}, "type": "Feature"}, {"properties": {"bikes": 14, "status": "OPEN", "name": "06 Latour Maubourg", "stands": 10, "lon": 4.90235, "address": "06 Latour Maubourg", "lat": 44.933636}, "geometry": {"type": "Point", "coordinates": [4.90235, 44.933636]}, "type": "Feature"}, {"properties": {"bikes": 9, "status": "OPEN", "name": "07 Gare", "stands": 15, "lon": 4.893175, "address": "07 Gare", "lat": 44.928236}, "geometry": {"type": "Point", "coordinates": [4.893175, 44.928236]}, "type": "Feature"}, {"properties": {"bikes": 8, "status": "OPEN", "name": "08 Montplaisir", "stands": 4, "lon": 4.908025, "address": "08 Montplaisir", "lat": 44.929322}, "geometry": {"type": "Point", "coordinates": [4.908025, 44.929322]}, "type": "Feature"}, {"properties": {"bikes": 3, "status": "OPEN", "name": "09 Jaur\u00e8s", "stands": 9, "lon": 4.89552, "address": "09 Jaur\u00e8s", "lat": 44.940142}, "geometry": {"type": "Point", "coordinates": [4.89552, 44.940142]}, "type": "Feature"}, {"properties": {"bikes": 9, "status": "OPEN", "name": "10 Mairie Bourg", "stands": 3, "lon": 4.893467, "address": "10 Mairie Bourg", "lat": 44.946506}, "geometry": {"type": "Point", "coordinates": [4.893467, 44.946506]}, "type": "Feature"}, {"properties": {"bikes": 10, "status": "OPEN", "name": "13 Briand", "stands": 6, "lon": 4.889411, "address": "13 Briand", "lat": 44.928986}, "geometry": {"type": "Point", "coordinates": [4.889411, 44.928986]}, "type": "Feature"}, {"properties": {"bikes": 7, "status": "OPEN", "name": "14 Alpes Faventines", "stands": 5, "lon": 4.902099, "address": "14 Alpes Faventines", "lat": 44.925855}, "geometry": {"type": "Point", "coordinates": [4.902099, 44.925855]}, "type": "Feature"}, {"properties": {"bikes": 8, "status": "OPEN", "name": "16 Faventines", "stands": 8, "lon": 4.898914, "address": "16 Faventines", "lat": 44.928667}, "geometry": {"type": "Point", "coordinates": [4.898914, 44.928667]}, "type": "Feature"}, {"properties": {"bikes": 10, "status": "OPEN", "name": "17 Hugo Faure", "stands": 6, "lon": 4.884481, "address": "17 Hugo Faure", "lat": 44.912514}, "geometry": {"type": "Point", "coordinates": [4.884481, 44.912514]}, "type": "Feature"}, {"properties": {"bikes": 6, "status": "OPEN", "name": "18 Place de la Paix", "stands": 6, "lon": 4.89485, "address": "18 Place de la Paix", "lat": 44.924761}, "geometry": {"type": "Point", "coordinates": [4.89485, 44.924761]}, "type": "Feature"}, {"properties": {"bikes": 10, "status": "OPEN", "name": "19 Danton", "stands": 6, "lon": 4.885864, "address": "19 Danton", "lat": 44.919603}, "geometry": {"type": "Point", "coordinates": [4.885864, 44.919603]}, "type": "Feature"}, {"properties": {"bikes": 9, "status": "OPEN", "name": "20 R\u00e9publique", "stands": 7, "lon": 4.890253, "address": "20 R\u00e9publique", "lat": 44.930614}, "geometry": {"type": "Point", "coordinates": [4.890253, 44.930614]}, "type": "Feature"}, {"properties": {"bikes": 12, "status": "OPEN", "name": "21 Epervi\u00e8re", "stands": 12, "lon": 4.875325, "address": "21 Epervi\u00e8re", "lat": 44.9145}, "geometry": {"type": "Point", "coordinates": [4.875325, 44.9145]}, "type": "Feature"}, {"properties": {"bikes": 5, "status": "OPEN", "name": "23 Desmoulins", "stands": 3, "lon": 4.900262, "address": "23 Desmoulins", "lat": 44.919041}, "geometry": {"type": "Point", "coordinates": [4.900262, 44.919041]}, "type": "Feature"}, {"properties": {"bikes": 6, "status": "OPEN", "name": "24 Montgolfier", "stands": 6, "lon": 4.905634, "address": "24 Montgolfier", "lat": 44.922726}, "geometry": {"type": "Point", "coordinates": [4.905634, 44.922726]}, "type": "Feature"}], "type": "FeatureCollection"}